{"type":"FeatureCollection","crs":{"type":"name","properties":{"name":"urn:ogc:def:crs:OGC:1.3:CRS84"}},"features":[{"type":"Feature","properties":{"SCHOOL":"Western Elementary School","ADDRESS":"1901 Frankfort Rd","CLASSIFICA":"Elementary","NAME":"Western Elementary","PHONE":"502-863-1393"},"geometry":{"type":"Point","coordinates":[-84.59793741430664,38.21122154867327]}},{"type":"Feature","properties":{"SCHOOL":"Garth Elementary School","ADDRESS":"501 S Hamilton St","CLASSIFICA":"Elementary","NAME":"Garth Elementary","PHONE":"502-863-1170"},"geometry":{"type":"Point","coordinates":[-84.55901672439072,38.20588535967629]}},{"type":"Feature","properties":{"SCHOOL":"Georgetown Middle School","ADDRESS":"730 S Hamilton St","CLASSIFICA":"Middle","NAME":"Georgetown Middle","PHONE":"502-863-3805"},"geometry":{"type":"Point","coordinates":[-84.55741390383075,38.1997406288472]}},{"type":"Feature","properties":{"SCHOOL":"Southern Elementary School","ADDRESS":"1200 Fairfax Way","CLASSIFICA":"Elementary","NAME":"Southern Elementary","PHONE":"502-863-0772"},"geometry":{"type":"Point","coordinates":[-84.5559268115496,38.19388408431662]}},{"type":"Feature","properties":{"SCHOOL":"Scott County High School","ADDRESS":"1080 Cardinal Dr","CLASSIFICA":"High","NAME":"Scott County High","PHONE":"502-863-4131"},"geometry":{"type":"Point","coordinates":[-84.57312212166445,38.23278717029867]}},{"type":"Feature","properties":{"SCHOOL":"Scott County Middle School","ADDRESS":"1072 Cardinal Dr","CLASSIFICA":"Middle","NAME":"Scott County Middle","PHONE":"502-863-7202"},"geometry":{"type":"Point","coordinates":[-84.57145791179315,38.23073220540748]}},{"type":"Feature","properties":{"SCHOOL":"Cardinal Academy","ADDRESS":"1076 Cardinal Dr","CLASSIFICA":"Alternative","NAME":"Cardinal Academy","PHONE":"502-863-4057"},"geometry":{"type":"Point","coordinates":[-84.57174289420263,38.23248027818114]}},{"type":"Feature","properties":{"SCHOOL":"Eastern Elementary School","ADDRESS":"3407 Newton Rd","CLASSIFICA":"Elementary","NAME":"Eastern Elementary","PHONE":"502-863-0275"},"geometry":{"type":"Point","coordinates":[-84.48443054382355,38.23356373820782]}},{"type":"Feature","properties":{"SCHOOL":"Northern Elementary School","ADDRESS":"3600 Cincinnati Rd","CLASSIFICA":"Elementary","NAME":"Northern Elementary","PHONE":"502-868-5007"},"geometry":{"type":"Point","coordinates":[-84.5758836090179,38.33009580948426]}},{"type":"Feature","properties":{"SCHOOL":"Stamping Ground Elementry School","ADDRESS":"3233 Main St","CLASSIFICA":"Elementary","NAME":"Stamping Ground Elem","PHONE":"502-570-8800"},"geometry":{"type":"Point","coordinates":[-84.68158462880285,38.26982130011252]}},{"type":"Feature","properties":{"SCHOOL":"Anne Mason Elementary School","ADDRESS":"350 Champion Way","CLASSIFICA":"Elementary","NAME":"Anne Mason Elementary","PHONE":"502-570-3050"},"geometry":{"type":"Point","coordinates":[-84.56599978994683,38.24073519087408]}},{"type":"Feature","properties":{"SCHOOL":"Scott County 9th Grade School","ADDRESS":"1072 Cardinal Dr","CLASSIFICA":"Middle","NAME":"Scott County 9th Grade","PHONE":"502-863-4635"},"geometry":{"type":"Point","coordinates":[-84.57265054046971,38.23232813357431]}},{"type":"Feature","properties":{"SCHOOL":"Royal Spring Middle School","ADDRESS":"332 Champion Way","CLASSIFICA":"Middle","NAME":"Royal Spring Middle","PHONE":"502-570-2390"},"geometry":{"type":"Point","coordinates":[-84.56104374823452,38.24089151787338]}},{"type":"Feature","properties":{"SCHOOL":"Providence Christian Academy","ADDRESS":"1300 Long Lick Pike","CLASSIFICA":"Private Elem","NAME":"Providence Christian","PHONE":"502-868-9393"},"geometry":{"type":"Point","coordinates":[-84.55564649755961,38.18206550763208]}},{"type":"Feature","properties":{"SCHOOL":"St John Catholic School","ADDRESS":"106 Military St","CLASSIFICA":"Private Elem/Mid","NAME":"St John Catholic","PHONE":"502-863-2607"},"geometry":{"type":"Point","coordinates":[-84.55098273742807,38.20895935061605]}},{"type":"Feature","properties":{"SCHOOL":"Georgetown College","ADDRESS":"400 East College Street","CLASSIFICA":"College","NAME":"Georgetown College","PHONE":"502-863-8000"},"geometry":{"type":"Point","coordinates":[-84.55465091611478,38.20761936964428]}},{"type":"Feature","properties":{"SCHOOL":"Elkhorn Crossing School","ADDRESS":"2001 Frankfort Rd","CLASSIFICA":"Career School","NAME":"Elkhorn Crossing School","PHONE":"502-570-4920"},"geometry":{"type":"Point","coordinates":[-84.60198223857607,38.21165744204023]}},{"type":"Feature","properties":{"SCHOOL":"Scott County Pre-School Center","ADDRESS":"1300 Long Lick Pike","CLASSIFICA":"Pre-School","NAME":"Scott County Pre-School","PHONE":"502-868-0411"},"geometry":{"type":"Point","coordinates":[-84.57823987141379,38.23737418359298]}},{"type":"Feature","properties":{"SCHOOL":"Center for Lifelong Learning","ADDRESS":"332 Champion Way","CLASSIFICA":"Family Education","NAME":"Lifelong Learning","PHONE":"502-863-6855"},"geometry":{"type":"Point","coordinates":[-84.56084264454293,38.24092097480963]}},{"type":"Feature","properties":{"SCHOOL":"Bluegrass Community & Technical College","ADDRESS":null,"CLASSIFICA":"Vocational","NAME":"Future BCTC"},"geometry":{"type":"Point","coordinates":[-84.50869012302955,38.26930480817529]}},{"type":"Feature","properties":{"SCHOOL":"Lemons Mill Elementary School","ADDRESS":"300 School House Rd","CLASSIFICA":"Elementary","NAME":"Lemons Mill Elementary","PHONE":"502-867-6700"},"geometry":{"type":"Point","coordinates":[-84.54013690367802,38.18656369147464]}}]}